{"root_query": "car wash", "root_location": "Delaware", "root_seed_name": "Coastal Car Wash", "root_seed_lat": 39.143396, "root_seed_lng": -75.5171079, "spawn_depth": 1, "parent_seed_name": "Coastal Car Wash", "parent_seed_lat": 39.143396, "parent_seed_lng": -75.5171079, "radius_km": 1.0, "name": "Express Car Wash", "rating": "stars", "reviews": null, "address": "Dover, DE 19901, United States", "phone": null, "website": null, "email": null, "plus_code": "4FVM+93 Dover, Delaware, USA", "maps_url": "https://www.google.com/maps/place/Express+Car+Wash/@39.143466,-75.5172767,17z/data=!3m1!4b1!4m6!3m5!1s0x89c7634fe9772927:0xc9676ee7f586785b!8m2!3d39.143466!4d-75.5172767!16s%2Fg%2F11yj3y3138?authuser=0&hl=en&entry=ttu&g_ep=EgoyMDI2MDQyMC4wIKXMDSoASAFQAw%3D%3D", "place_lat": 39.143466, "place_lng": -75.5172767, "distance_km_from_parent": 0.016507474904622416, "scraped_at_iso": "2026-04-22T19:28:59Z", "_index": 1}
{"root_query": "car wash", "root_location": "Delaware", "root_seed_name": "Coastal Car Wash", "root_seed_lat": 39.143396, "root_seed_lng": -75.5171079, "spawn_depth": 1, "parent_seed_name": "Coastal Car Wash", "parent_seed_lat": 39.143396, "parent_seed_lng": -75.5171079, "radius_km": 1.0, "name": "Car Zone", "rating": "4.0", "reviews": "8", "address": "1041 S Dupont Hwy, Dover, DE 19901, United States", "phone": "+1 302-736-3070", "website": "carzonedover.com", "email": null, "plus_code": "4FVM+VF Dover, Delaware, USA", "maps_url": "https://www.google.com/maps/place/Car+Zone/data=!4m7!3m6!1s0x89c76350031e2b5f:0x164bcb422adc1170!8m2!3d39.144681!4d-75.5163416!16s%2Fg%2F1vr3f3p3!19sChIJXyseA1Bjx4kRcBHcKkLLSxY?authuser=0&hl=en&rclk=1", "place_lat": 39.144681, "place_lng": -75.5163416, "distance_km_from_parent": 0.1574275377363524, "scraped_at_iso": "2026-04-22T19:29:03Z", "_index": 2}
{"root_query": "car wash", "root_location": "Delaware", "root_seed_name": "Coastal Car Wash", "root_seed_lat": 39.143396, "root_seed_lng": -75.5171079, "spawn_depth": 1, "parent_seed_name": "Coastal Car Wash", "parent_seed_lat": 39.143396, "parent_seed_lng": -75.5171079, "radius_km": 1.0, "name": "Detailing Pro by Sherri", "rating": "1.0", "reviews": "4", "address": "178 Orchard Ave, Dover, DE 19901, United States", "phone": null, "website": null, "email": null, "plus_code": "4FVJ+WP Dover, Delaware, USA", "maps_url": "https://www.google.com/maps/place/Detailing+Pro+by+Sherri/@39.1447589,-75.5181958,17z/data=!3m1!4b1!4m6!3m5!1s0x89c7635026107bcb:0x443ccd13d341b058!8m2!3d39.1447589!4d-75.5181958!16s%2Fg%2F1tdcshf5?authuser=0&hl=en&entry=ttu&g_ep=EgoyMDI2MDQyMC4wIKXMDSoASAFQAw%3D%3D", "place_lat": 39.1447589, "place_lng": -75.5181958, "distance_km_from_parent": 0.1782375756934599, "scraped_at_iso": "2026-04-22T19:29:11Z", "_index": 3}
{"root_query": "car wash", "root_location": "Delaware", "root_seed_name": "Magic Car Wash", "root_seed_lat": 39.8294778, "root_seed_lng": -75.5423903, "spawn_depth": 1, "parent_seed_name": "Magic Car Wash", "parent_seed_lat": 39.8294778, "parent_seed_lng": -75.5423903, "radius_km": 1.0, "name": "Target", "rating": "4.1", "reviews": "14", "address": "1050 Brandywine Pkwy, Wilmington, DE 19803, United States", "phone": "+1 302-478-2500", "website": "target.com", "email": null, "plus_code": "RFJ5+CQ Wilmington, Delaware, USA", "maps_url": "https://www.google.com/maps/place/Target/data=!4m7!3m6!1s0x89c6fb39dc06bd51:0xe97c2e8b44f5f5e4!8m2!3d39.8310279!4d-75.5405206!16s%2Fg%2F1thhlgtv!19sChIJUb0G3Dn7xokR5PX1RIsufOk?authuser=0&hl=en&rclk=1", "place_lat": 39.8310279, "place_lng": -75.5405206, "distance_km_from_parent": 0.23494545553046112, "scraped_at_iso": "2026-04-22T19:29:15Z", "_index": 4}
{"root_query": "car wash", "root_location": "Delaware", "root_seed_name": "Coastal Car Wash", "root_seed_lat": 39.143396, "root_seed_lng": -75.5171079, "spawn_depth": 1, "parent_seed_name": "Coastal Car Wash", "parent_seed_lat": 39.143396, "parent_seed_lng": -75.5171079, "radius_km": 1.0, "name": "Es Mobile Power Wash and Car Detailing", "rating": "1.0", "reviews": "4", "address": "Pine St, Dover, DE 19901, United States", "phone": null, "website": "esmobilepowerwash.square.site", "email": null, "plus_code": "4FWJ+W6 Dover, Delaware, USA", "maps_url": "https://www.google.com/maps/place/Es+Mobile+Power+Wash+and+Car+Detailing/data=!4m7!3m6!1s0x89c763d4442a78d7:0xe16b5e4e33df18d8!8m2!3d39.1473511!4d-75.5194096!16s%2Fg%2F11rxqs4vy2!19sChIJ13gqRNRjx4kR2BjfM05ea-E?authuser=0&hl=en&rclk=1", "place_lat": 39.1473511, "place_lng": -75.5194096, "distance_km_from_parent": 0.48250542169165284, "scraped_at_iso": "2026-04-22T19:29:20Z", "_index": 5}
{"root_query": "car wash", "root_location": "Delaware", "root_seed_name": "Splash In", "root_seed_lat": 39.8184726, "root_seed_lng": -75.4650912, "spawn_depth": 1, "parent_seed_name": "Splash In", "parent_seed_lat": 39.8184726, "parent_seed_lng": -75.4650912, "radius_km": 1.0, "name": "Carpenter Station Shopping Center", "rating": "4.2", "reviews": "2", "address": "Carpenter Station Rd, Wilmington, DE 19810, United States", "phone": null, "website": null, "email": null, "plus_code": "RG9M+4H Wilmington, Delaware, USA", "maps_url": "https://www.google.com/maps/place/Carpenter+Station+Shopping+Center/@39.8177728,-75.4660607,17z/data=!3m1!4b1!4m6!3m5!1s0x89c6e44264c00001:0xfef9620c273c7983!8m2!3d39.8177728!4d-75.4660607!16s%2Fg%2F11kj901gpn?authuser=0&hl=en&entry=ttu&g_ep=EgoyMDI2MDQyMC4wIKXMDSoASAFQAw%3D%3D", "place_lat": 39.8177728, "place_lng": -75.4660607, "distance_km_from_parent": 0.11362742005005746, "scraped_at_iso": "2026-04-22T19:29:21Z", "_index": 6}
{"root_query": "car wash", "root_location": "Delaware", "root_seed_name": "Magic Car Wash", "root_seed_lat": 39.8294778, "root_seed_lng": -75.5423903, "spawn_depth": 1, "parent_seed_name": "Magic Car Wash", "parent_seed_lat": 39.8294778, "parent_seed_lng": -75.5423903, "radius_km": 1.0, "name": "Mavis Tires & Brakes", "rating": "4.5", "reviews": "41", "address": "5508 Concord Pike, Wilmington, DE 19803, United States", "phone": "+1 302-665-9280", "website": "mavis.com", "email": null, "plus_code": "RFM4+29 Wilmington, Delaware, USA", "maps_url": "https://www.google.com/maps/place/Mavis+Tires+%26+Brakes/data=!4m7!3m6!1s0x89c6fb3bdd4a2e8b:0x2a4275b5043badd1!8m2!3d39.8326163!4d-75.5440763!16s%2Fg%2F1tp1zsft!19sChIJiy5K3Tv7xokR0a07BLV1Qio?authuser=0&hl=en&rclk=1", "place_lat": 39.8326163, "place_lng": -75.5440763, "distance_km_from_parent": 0.3775151535919774, "scraped_at_iso": "2026-04-22T19:29:28Z", "_index": 7}
{"root_query": "car wash", "root_location": "Delaware", "root_seed_name": "Bear Express Car Wash", "root_seed_lat": 39.6179436, "root_seed_lng": -75.6955431, "spawn_depth": 1, "parent_seed_name": "Bear Express Car Wash", "parent_seed_lat": 39.6179436, "parent_seed_lng": -75.6955431, "radius_km": 1.0, "name": "AutoZone Auto Parts", "rating": "4.0", "reviews": "5", "address": "1727 Pulaski Hwy, Bear, DE 19701, United States", "phone": "+1 302-836-9782", "website": "autozone.com", "email": "customer.reviews@autozone.com", "plus_code": "J893+76 Bear, Delaware, USA", "maps_url": "https://www.google.com/maps/place/AutoZone+Auto+Parts/data=!4m7!3m6!1s0x89c7079be3ba933d:0xad8ae1a467c98ab6!8m2!3d39.6181977!4d-75.6969729!16s%2Fg%2F1td1qvpg!19sChIJPZO645sHx4kRtorJZ6Thiq0?authuser=0&hl=en&rclk=1", "place_lat": 39.6181977, "place_lng": -75.6969729, "distance_km_from_parent": 0.12568627163375856, "scraped_at_iso": "2026-04-22T19:29:29Z", "_index": 8}
{"root_query": "car wash", "root_location": "Delaware", "root_seed_name": "Splash In", "root_seed_lat": 39.8184726, "root_seed_lng": -75.4650912, "spawn_depth": 1, "parent_seed_name": "Splash In", "parent_seed_lat": 39.8184726, "parent_seed_lng": -75.4650912, "radius_km": 1.0, "name": "Shell", "rating": "4.0", "reviews": "4", "address": "698 Naamans Rd, Claymont, DE 19703, United States", "phone": "+1 302-798-0230", "website": "find.shell.com", "email": null, "plus_code": "RG8R+JG Claymont, Delaware, USA", "maps_url": "https://www.google.com/maps/place/Shell/data=!4m7!3m6!1s0x89c6e4401b6df5eb:0x79ba3078cca808f9!8m2!3d39.8165764!4d-75.4586632!16s%2Fg%2F11bvt7ldj1!19sChIJ6_VtG0DkxokR-QiozHgwunk?authuser=0&hl=en&rclk=1", "place_lat": 39.8165764, "place_lng": -75.4586632, "distance_km_from_parent": 0.5880959475683973, "scraped_at_iso": "2026-04-22T19:29:29Z", "_index": 9}
{"root_query": "car wash", "root_location": "Delaware", "root_seed_name": "White Glove Car Wash", "root_seed_lat": 39.65239, "root_seed_lng": -75.750683, "spawn_depth": 1, "parent_seed_name": "White Glove Car Wash", "parent_seed_lat": 39.65239, "parent_seed_lng": -75.750683, "radius_km": 1.0, "name": "Shell", "rating": "3.4", "reviews": "2", "address": "1005 S College Ave, Newark, DE 19713, United States", "phone": "+1 302-294-1176", "website": "locations.dashin.com", "email": null, "plus_code": "M63X+4X Newark, Delaware, USA", "maps_url": "https://www.google.com/maps/place/Shell/data=!4m7!3m6!1s0x89c7a998378326c5:0xa45abd9ef3232560!8m2!3d39.65287!4d-75.75002!16s%2Fg%2F1q5bnc49z!19sChIJxSaDN5ipx4kRYCUj8569WqQ?authuser=0&hl=en&rclk=1", "place_lat": 39.65287, "place_lng": -75.75002, "distance_km_from_parent": 0.07791355731508215, "scraped_at_iso": "2026-04-22T19:29:31Z", "_index": 10}
{"root_query": "car wash", "root_location": "Delaware", "root_seed_name": "Coastal Car Wash", "root_seed_lat": 39.143396, "root_seed_lng": -75.5171079, "spawn_depth": 1, "parent_seed_name": "Coastal Car Wash", "parent_seed_lat": 39.143396, "parent_seed_lng": -75.5171079, "radius_km": 1.0, "name": "Meineke Car Care Center", "rating": "4.3", "reviews": "19", "address": "1312 S Dupont Hwy, Dover, DE 19901, United States", "phone": "+1 302-257-6638", "website": "meineke.com", "email": null, "plus_code": "4FQF+JV Dover, Delaware, USA", "maps_url": "https://www.google.com/maps/place/Meineke+Car+Care+Center/data=!4m7!3m6!1s0x89c7634c1e0e1325:0xe4fb382eece33f73!8m2!3d39.1390844!4d-75.5252794!16s%2Fg%2F1hc0w1b0g!19sChIJJRMOHkxjx4kRcz_j7C44--Q?authuser=0&hl=en&rclk=1", "place_lat": 39.1390844, "place_lng": -75.5252794, "distance_km_from_parent": 0.8523437240444407, "scraped_at_iso": "2026-04-22T19:29:31Z", "_index": 11}
{"root_query": "car wash", "root_location": "Delaware", "root_seed_name": "The Car Spa", "root_seed_lat": 39.7096383, "root_seed_lng": -75.6508328, "spawn_depth": 1, "parent_seed_name": "The Car Spa", "parent_seed_lat": 39.7096383, "parent_seed_lng": -75.6508328, "radius_km": 1.0, "name": "Walgreens", "rating": "2.4", "reviews": "3", "address": "536 Main St, Wilmington, DE 19804, United States", "phone": "+1 302-633-0569", "website": "walgreens.com", "email": null, "plus_code": "P962+93 Wilmington, Delaware, USA", "maps_url": "https://www.google.com/maps/place/Walgreens/data=!4m7!3m6!1s0x89c701bb61ff41bf:0x9b4e2b4f731f52f2!8m2!3d39.7108947!4d-75.6498257!16s%2Fg%2F1vk6_5wy!19sChIJv0H_YbsBx4kR8lIfc08rTps?authuser=0&hl=en&rclk=1", "place_lat": 39.7108947, "place_lng": -75.6498257, "distance_km_from_parent": 0.1641311655709095, "scraped_at_iso": "2026-04-22T19:29:31Z", "_index": 12}
{"root_query": "car wash", "root_location": "Delaware", "root_seed_name": "Greenhill Car Wash", "root_seed_lat": 39.7516509, "root_seed_lng": -75.5799736, "spawn_depth": 1, "parent_seed_name": "Greenhill Car Wash", "parent_seed_lat": 39.7516509, "parent_seed_lng": -75.5799736, "radius_km": 1.0, "name": "Kj's Detailing", "rating": "1.0", "reviews": "4", "address": "212 Webb St, Wilmington, DE 19805, United States", "phone": null, "website": null, "email": null, "plus_code": "QC29+7W Wilmington, Delaware, USA", "maps_url": "https://www.google.com/maps/place/Kj's+Detailing/@39.750745,-75.5801834,17z/data=!3m1!4b1!4m6!3m5!1s0x89c6fd98aa8d32bf:0x6a3a931e70a77923!8m2!3d39.750745!4d-75.5801834!16s%2Fg%2F11jlzzmcxs?authuser=0&hl=en&entry=ttu&g_ep=EgoyMDI2MDQyMC4wIKXMDSoASAFQAw%3D%3D", "place_lat": 39.750745, "place_lng": -75.5801834, "distance_km_from_parent": 0.10231580303529364, "scraped_at_iso": "2026-04-22T19:29:32Z", "_index": 13}
{"root_query": "car wash", "root_location": "Delaware", "root_seed_name": "Magic Car Wash", "root_seed_lat": 39.8294778, "root_seed_lng": -75.5423903, "spawn_depth": 1, "parent_seed_name": "Magic Car Wash", "parent_seed_lat": 39.8294778, "parent_seed_lng": -75.5423903, "radius_km": 1.0, "name": "Lowe's Garden Center", "rating": "3.4", "reviews": "2", "address": "3100 Brandywine Pkwy 1st Floor, Wilmington, DE 19803, United States", "phone": "+1 302-479-7799", "website": "lowes.com", "email": null, "plus_code": "RFM7+4C Wilmington, Delaware, USA", "maps_url": "https://www.google.com/maps/place/Lowe%27s+Garden+Center/data=!4m7!3m6!1s0x89c6fb30e06578f9:0x93eab128800f8781!8m2!3d39.8328155!4d-75.5364741!16s%2Fg%2F11fyxdbsy6!19sChIJ-Xhl4DD7xokRgYcPgCix6pM?authuser=0&hl=en&rclk=1", "place_lat": 39.8328155, "place_lng": -75.5364741, "distance_km_from_parent": 0.6268618251102177, "scraped_at_iso": "2026-04-22T19:29:35Z", "_index": 14}
{"root_query": "car wash", "root_location": "Delaware", "root_seed_name": "Bear Express Car Wash", "root_seed_lat": 39.6179436, "root_seed_lng": -75.6955431, "spawn_depth": 1, "parent_seed_name": "Bear Express Car Wash", "parent_seed_lat": 39.6179436, "parent_seed_lng": -75.6955431, "radius_km": 1.0, "name": "Dollar General", "rating": "3.9", "reviews": "3", "address": "1679 Pulaski Hwy, Bear, DE 19701, United States", "phone": "+1 302-561-9514", "website": "dollargeneral.com", "email": null, "plus_code": "J8C4+24 Bear, Delaware, USA", "maps_url": "https://www.google.com/maps/place/Dollar+General/@39.6200462,-75.6946961,17z/data=!3m1!4b1!4m6!3m5!1s0x89c7079ecb90ad55:0xbc408f77480aa392!8m2!3d39.6200462!4d-75.6946961!16s%2Fg%2F1262m1z1y?authuser=0&hl=en&entry=ttu&g_ep=EgoyMDI2MDQyMC4wIKXMDSoASAFQAw%3D%3D", "place_lat": 39.6200462, "place_lng": -75.6946961, "distance_km_from_parent": 0.24479588078949166, "scraped_at_iso": "2026-04-22T19:29:37Z", "_index": 15}
{"root_query": "car wash", "root_location": "Delaware", "root_seed_name": "Splash In", "root_seed_lat": 39.8184726, "root_seed_lng": -75.4650912, "spawn_depth": 1, "parent_seed_name": "Splash In", "parent_seed_lat": 39.8184726, "parent_seed_lng": -75.4650912, "radius_km": 1.0, "name": "Circle K", "rating": "4.2", "reviews": "3", "address": "698 Naamans Rd, Claymont, DE 19703, United States", "phone": "+1 302-798-8800", "website": "circlek.com", "email": null, "plus_code": "RG8R+HG Claymont, Delaware, USA", "maps_url": "https://www.google.com/maps/place/Circle+K/@39.8164148,-75.4586723,17z/data=!3m1!4b1!4m6!3m5!1s0x89c6e4401b175843:0x131101075045f140!8m2!3d39.8164148!4d-75.4586723!16s%2Fg%2F11h9qf0zqp?authuser=0&hl=en&entry=ttu&g_ep=EgoyMDI2MDQyMC4wIKXMDSoASAFQAw%3D%3D", "place_lat": 39.8164148, "place_lng": -75.4586723, "distance_km_from_parent": 0.594058213618027, "scraped_at_iso": "2026-04-22T19:29:38Z", "_index": 16}
{"root_query": "car wash", "root_location": "Delaware", "root_seed_name": "Coastal Car Wash", "root_seed_lat": 39.143396, "root_seed_lng": -75.5171079, "spawn_depth": 1, "parent_seed_name": "Coastal Car Wash", "parent_seed_lat": 39.143396, "parent_seed_lng": -75.5171079, "radius_km": 1.0, "name": "Buggy CarWash Dover", "rating": "3.8", "reviews": "97", "address": "666 S Dupont Hwy, Dover, DE 19901, United States", "phone": "+1 302-883-3554", "website": null, "email": null, "plus_code": "5F2M+HX Dover, Delaware, USA", "maps_url": "https://www.google.com/maps/place/Buggy+CarWash+Dover/@39.1514511,-75.5150387,17z/data=!3m1!4b1!4m6!3m5!1s0x89c76359c6a28b27:0x68704e106d4fa51b!8m2!3d39.1514511!4d-75.5150387!16s%2Fg%2F11cs13flq8?authuser=0&hl=en&entry=ttu&g_ep=EgoyMDI2MDQyMC4wIKXMDSoASAFQAw%3D%3D", "place_lat": 39.1514511, "place_lng": -75.5150387, "distance_km_from_parent": 0.9132870917266878, "scraped_at_iso": "2026-04-22T19:29:39Z", "_index": 17}
{"root_query": "car wash", "root_location": "Delaware", "root_seed_name": "Greenhill Car Wash", "root_seed_lat": 39.7516509, "root_seed_lng": -75.5799736, "spawn_depth": 1, "parent_seed_name": "Greenhill Car Wash", "parent_seed_lat": 39.7516509, "parent_seed_lng": -75.5799736, "radius_km": 1.0, "name": "The Professionals Auto Detailing Salon", "rating": "5.0", "reviews": "4", "address": "2513 W 6th St, Wilmington, DE 19805, United States", "phone": null, "website": "contactthepros.com", "email": null, "plus_code": "QC3C+9Q Wilmington, Delaware, USA", "maps_url": "https://www.google.com/maps/place/The+Professionals+Auto+Detailing+Salon/data=!4m7!3m6!1s0x89c6fda10925fbe7:0x73c87e6dd96f4b03!8m2!3d39.7533756!4d-75.5780913!16s%2Fg%2F11jlzz466q!19sChIJ5_slCaH9xokRA0tv2W1-yHM?authuser=0&hl=en&rclk=1", "place_lat": 39.7533756, "place_lng": -75.5780913, "distance_km_from_parent": 0.25034418501027456, "scraped_at_iso": "2026-04-22T19:29:39Z", "_index": 18}
{"root_query": "car wash", "root_location": "Delaware", "root_seed_name": "The Car Spa", "root_seed_lat": 39.7096383, "root_seed_lng": -75.6508328, "spawn_depth": 1, "parent_seed_name": "The Car Spa", "parent_seed_lat": 39.7096383, "parent_seed_lng": -75.6508328, "radius_km": 1.0, "name": "Dash In", "rating": "3.8", "reviews": "5", "address": "414 Main St, Wilmington, DE 19804, United States", "phone": "+1 302-274-2126", "website": "locations.dashin.com", "email": null, "plus_code": "P973+42 Wilmington, Delaware, USA", "maps_url": "https://www.google.com/maps/place/Dash+In/@39.7127714,-75.6474497,17z/data=!3m1!4b1!4m6!3m5!1s0x89c701bc49c8589b:0x792ce568f3a2e9c4!8m2!3d39.7127714!4d-75.6474497!16s%2Fg%2F1tcwxpfg?authuser=0&hl=en&entry=ttu&g_ep=EgoyMDI2MDQyMC4wIKXMDSoASAFQAw%3D%3D", "place_lat": 39.7127714, "place_lng": -75.6474497, "distance_km_from_parent": 0.4528991814364289, "scraped_at_iso": "2026-04-22T19:29:40Z", "_index": 19}
{"root_query": "car wash", "root_location": "Delaware", "root_seed_name": "Price's Corner Car Wash", "root_seed_lat": 39.7377545, "root_seed_lng": -75.6254918, "spawn_depth": 1, "parent_seed_name": "Price's Corner Car Wash", "parent_seed_lat": 39.7377545, "parent_seed_lng": -75.6254918, "radius_km": 1.0, "name": "Kirkwood Hwy @ Prices Corner Car Wash", "rating": "3.0", "reviews": "3", "address": "Delaware 19808, United States", "phone": null, "website": null, "email": null, "plus_code": "P9PF+XV Albertson, Delaware, USA", "maps_url": "https://www.google.com/maps/place/Kirkwood+Hwy+@+Prices+Corner+Car+Wash/@39.737392,-75.625351,17z/data=!3m1!4b1!4m6!3m5!1s0x89c6fe01ea4ca6db:0xdef85d823a795c26!8m2!3d39.737392!4d-75.625351!16s%2Fg%2F11swj1cmtt?authuser=0&hl=en&entry=ttu&g_ep=EgoyMDI2MDQyMC4wIKXMDSoASAFQAw%3D%3D", "place_lat": 39.737392, "place_lng": -75.625351, "distance_km_from_parent": 0.04206772785956332, "scraped_at_iso": "2026-04-22T19:29:42Z", "_index": 20}
{"root_query": "car wash", "root_location": "Delaware", "root_seed_name": "Magic Car Wash", "root_seed_lat": 39.8294778, "root_seed_lng": -75.5423903, "spawn_depth": 1, "parent_seed_name": "Magic Car Wash", "parent_seed_lat": 39.8294778, "parent_seed_lng": -75.5423903, "radius_km": 1.0, "name": "Lowe's Home Improvement", "rating": "3.8", "reviews": "40", "address": "3100 Brandywine Pkwy 1st Floor, Wilmington, DE 19803, United States", "phone": "+1 302-479-7799", "website": "lowes.com", "email": null, "plus_code": "RFM7+4H Wilmington, Delaware, USA", "maps_url": "https://www.google.com/maps/place/Lowe%27s+Home+Improvement/data=!4m7!3m6!1s0x89c6fb30a62d3f43:0xf984759ee243805f!8m2!3d39.832777!4d-75.536074!16s%2Fg%2F1vfzg3fj!19sChIJQz8tpjD7xokRX4BD4p51hPk?authuser=0&hl=en&rclk=1", "place_lat": 39.832777, "place_lng": -75.536074, "distance_km_from_parent": 0.6522905846741979, "scraped_at_iso": "2026-04-22T19:29:46Z", "_index": 21}
{"root_query": "car wash", "root_location": "Delaware", "root_seed_name": "New Castle Auto Spa, Inc.", "root_seed_lat": 39.6599834, "root_seed_lng": -75.6086781, "spawn_depth": 1, "parent_seed_name": "New Castle Auto Spa, Inc.", "parent_seed_lat": 39.6599834, "parent_seed_lng": -75.6086781, "radius_km": 1.0, "name": "Hertrich Hyundai of New Castle", "rating": "4.0", "reviews": "27", "address": "120 S Dupont Hwy, New Castle, DE 19720, United States", "phone": "+1 302-544-9182", "website": "hertrichhyundaiofnewcastle.com", "email": null, "plus_code": "M96V+V9 New Castle, Delaware, USA", "maps_url": "https://www.google.com/maps/place/Hertrich+Hyundai+of+New+Castle/data=!4m7!3m6!1s0x89c703f1c800d129:0x8fa647cecfa13af5!8m2!3d39.6621752!4d-75.606578!16s%2Fg%2F1td4fj0g!19sChIJKdEAyPEDx4kR9Tqhz85Hpo8?authuser=0&hl=en&rclk=1", "place_lat": 39.6621752, "place_lng": -75.606578, "distance_km_from_parent": 0.30284634024318907, "scraped_at_iso": "2026-04-22T19:29:46Z", "_index": 22}
{"root_query": "car wash", "root_location": "Delaware", "root_seed_name": "Bear Express Car Wash", "root_seed_lat": 39.6179436, "root_seed_lng": -75.6955431, "spawn_depth": 1, "parent_seed_name": "Bear Express Car Wash", "parent_seed_lat": 39.6179436, "parent_seed_lng": -75.6955431, "radius_km": 1.0, "name": "Mobile Foam", "rating": "4.7", "reviews": "2", "address": "458 Carson Dr, Bear, DE 19701, United States", "phone": "+1 302-605-6900", "website": "themobilefoam.com", "email": null, "plus_code": "J866+JH Bear, Delaware, USA", "maps_url": "https://www.google.com/maps/place/Mobile+Foam/@39.6115965,-75.6885821,17z/data=!3m1!4b1!4m6!3m5!1s0x89c70732394627e7:0x593e4795f2dd6add!8m2!3d39.6115965!4d-75.6885821!16s%2Fg%2F11j8k6cfmf?authuser=0&hl=en&entry=ttu&g_ep=EgoyMDI2MDQyMC4wIKXMDSoASAFQAw%3D%3D", "place_lat": 39.6115965, "place_lng": -75.6885821, "distance_km_from_parent": 0.9239287954498072, "scraped_at_iso": "2026-04-22T19:29:47Z", "_index": 23}
{"root_query": "car wash", "root_location": "Delaware", "root_seed_name": "Splash In", "root_seed_lat": 39.8184726, "root_seed_lng": -75.4650912, "spawn_depth": 1, "parent_seed_name": "Splash In", "parent_seed_lat": 39.8184726, "parent_seed_lng": -75.4650912, "radius_km": 1.0, "name": "Circle K Car Wash", "rating": "2.2", "reviews": "2", "address": "698 Naamans Rd, Claymont, DE 19703, United States", "phone": null, "website": null, "email": null, "plus_code": "RG8R+FH Claymont, Delaware, USA", "maps_url": "https://www.google.com/maps/place/Circle+K+Car+Wash/@39.8162181,-75.4585827,17z/data=!3m1!4b1!4m6!3m5!1s0x89c6e4401d7a784d:0xa5ec9852d3aa4832!8m2!3d39.8162181!4d-75.4585827!16s%2Fg%2F11k5lvs37y?authuser=0&hl=en&entry=ttu&g_ep=EgoyMDI2MDQyMC4wIKXMDSoASAFQAw%3D%3D", "place_lat": 39.8162181, "place_lng": -75.4585827, "distance_km_from_parent": 0.6097892622623148, "scraped_at_iso": "2026-04-22T19:29:48Z", "_index": 24}
{"root_query": "car wash", "root_location": "Delaware", "root_seed_name": "The Car Spa", "root_seed_lat": 39.7096383, "root_seed_lng": -75.6508328, "spawn_depth": 1, "parent_seed_name": "The Car Spa", "parent_seed_lat": 39.7096383, "parent_seed_lng": -75.6508328, "radius_km": 1.0, "name": "Dash In", "rating": null, "reviews": null, "address": "414 Main St, Wilmington, DE 19804, United States", "phone": "+1 302-274-2126", "website": "dashin.com", "email": null, "plus_code": "P973+42 Wilmington, Delaware, USA", "maps_url": "https://www.google.com/maps/place/Dash+In/@39.7127714,-75.6474497,17z/data=!3m1!4b1!4m6!3m5!1s0x89c701003483e05d:0x77516ff67ac9a457!8m2!3d39.7127714!4d-75.6474497!16s%2Fg%2F11z2xfb17q?authuser=0&hl=en&entry=ttu&g_ep=EgoyMDI2MDQyMC4wIKXMDSoASAFQAw%3D%3D", "place_lat": 39.7127714, "place_lng": -75.6474497, "distance_km_from_parent": 0.4528991814364289, "scraped_at_iso": "2026-04-22T19:29:50Z", "_index": 25}
{"root_query": "car wash", "root_location": "Delaware", "root_seed_name": "Greenhill Car Wash", "root_seed_lat": 39.7516509, "root_seed_lng": -75.5799736, "spawn_depth": 1, "parent_seed_name": "Greenhill Car Wash", "parent_seed_lat": 39.7516509, "parent_seed_lng": -75.5799736, "radius_km": 1.0, "name": "Enterprise Rent-A-Car", "rating": "4.3", "reviews": "27", "address": "2415 Lancaster Ave, Wilmington, DE 19805, United States", "phone": "+1 302-575-1021", "website": "enterprise.com", "email": null, "plus_code": "PCXC+M2 Wilmington, Delaware, USA", "maps_url": "https://www.google.com/maps/place/Enterprise+Rent-A-Car/@39.7491955,-75.5798998,17z/data=!3m1!4b1!4m6!3m5!1s0x89c6fd98ccab7fa3:0xf5ea8766e0be9a39!8m2!3d39.7491955!4d-75.5798998!16s%2Fg%2F1tf7njcw?authuser=0&hl=en&entry=ttu&g_ep=EgoyMDI2MDQyMC4wIKXMDSoASAFQAw%3D%3D", "place_lat": 39.7491955, "place_lng": -75.5798998, "distance_km_from_parent": 0.27310091090397515, "scraped_at_iso": "2026-04-22T19:29:50Z", "_index": 26}
{"root_query": "car wash", "root_location": "Delaware", "root_seed_name": "Price's Corner Car Wash", "root_seed_lat": 39.7377545, "root_seed_lng": -75.6254918, "spawn_depth": 1, "parent_seed_name": "Price's Corner Car Wash", "parent_seed_lat": 39.7377545, "parent_seed_lng": -75.6254918, "radius_km": 1.0, "name": "Pep Boys Auto Service & Tires", "rating": "4.1", "reviews": "5", "address": "3207 Robert, Kirkwood Hwy, Wilmington, DE 19808, United States", "phone": "+1 302-499-2465", "website": "pepboys.com", "email": "pepsocial@pepboys.com", "plus_code": "P9QG+4C Wilmington, Delaware, USA", "maps_url": "https://www.google.com/maps/place/Pep+Boys+Auto+Service+%26+Tires/data=!4m7!3m6!1s0x89c701c5b79b9d5f:0xb371e67fa9627!8m2!3d39.7378314!4d-75.6239912!16s%2Fg%2F1tflyvvf!19sChIJX52bt8UBx4kRJ5b6Zx43CwA?authuser=0&hl=en&rclk=1", "place_lat": 39.7378314, "place_lng": -75.6239912, "distance_km_from_parent": 0.12859559870645132, "scraped_at_iso": "2026-04-22T19:29:50Z", "_index": 27}
{"root_query": "car wash", "root_location": "Delaware", "root_seed_name": "New Castle Auto Spa, Inc.", "root_seed_lat": 39.6599834, "root_seed_lng": -75.6086781, "spawn_depth": 1, "parent_seed_name": "New Castle Auto Spa, Inc.", "parent_seed_lat": 39.6599834, "parent_seed_lng": -75.6086781, "radius_km": 1.0, "name": "Hertrich Hyundai of New Castle Service", "rating": "3.7", "reviews": "2", "address": "120 S Dupont Hwy, New Castle, DE 19720, United States", "phone": "+1 302-323-1100", "website": "hertrichhyundaiofnewcastle.com", "email": null, "plus_code": "M96V+WJ New Castle, Delaware, USA", "maps_url": "https://www.google.com/maps/place/Hertrich+Hyundai+of+New+Castle+Service/data=!4m7!3m6!1s0x89c703b2f00551f1:0xe56c9669b23f7c7!8m2!3d39.6623023!4d-75.6059932!16s%2Fg%2F11gt8_6zty!19sChIJ8VEF8LIDx4kRx_cjm2bJVg4?authuser=0&hl=en&rclk=1", "place_lat": 39.6623023, "place_lng": -75.6059932, "distance_km_from_parent": 0.3454114275722063, "scraped_at_iso": "2026-04-22T19:29:51Z", "_index": 28}
{"root_query": "car wash", "root_location": "Delaware", "root_seed_name": "Magic Car Wash", "root_seed_lat": 39.8294778, "root_seed_lng": -75.5423903, "spawn_depth": 1, "parent_seed_name": "Magic Car Wash", "parent_seed_lat": 39.8294778, "parent_seed_lng": -75.5423903, "radius_km": 1.0, "name": "ShopRite of Brandywine Commons", "rating": "4.2", "reviews": "74", "address": "1300 Rocky Run Pkwy, Wilmington, DE 19803, United States", "phone": "+1 302-477-3270", "website": "shoprite.com", "email": null, "plus_code": "RFF2+XM Wilmington, Delaware, USA", "maps_url": "https://www.google.com/maps/place/ShopRite+of+Brandywine+Commons/data=!4m7!3m6!1s0x89c6fb41ab0cd09f:0x3646d0aa23200f21!8m2!3d39.8249229!4d-75.548322!16s%2Fg%2F1v9lcrfc!19sChIJn9AMq0H7xokRIQ8gI6rQRjY?authuser=0&hl=en&rclk=1", "place_lat": 39.8249229, "place_lng": -75.548322, "distance_km_from_parent": 0.7163146166400624, "scraped_at_iso": "2026-04-22T19:29:51Z", "_index": 29}
{"root_query": "car wash", "root_location": "Delaware", "root_seed_name": "Splash In", "root_seed_lat": 39.8184726, "root_seed_lng": -75.4650912, "spawn_depth": 1, "parent_seed_name": "Splash In", "parent_seed_lat": 39.8184726, "parent_seed_lng": -75.4650912, "radius_km": 1.0, "name": "The Home Depot", "rating": "4.1", "reviews": "181", "address": "601 Naamans Rd, Claymont, DE 19703, United States", "phone": "+1 302-791-0200", "website": "homedepot.com", "email": null, "plus_code": "RG9V+3R Claymont, Delaware, USA", "maps_url": "https://www.google.com/maps/place/The+Home+Depot/data=!4m7!3m6!1s0x89c6e43fba1b397b:0xf9264589012462f9!8m2!3d39.8176678!4d-75.4554902!16s%2Fg%2F1v2kycz5!19sChIJezkbuj_kxokR-WIkAYlFJvk?authuser=0&hl=en&rclk=1", "place_lat": 39.8176678, "place_lng": -75.4554902, "distance_km_from_parent": 0.824859246671836, "scraped_at_iso": "2026-04-22T19:29:55Z", "_index": 30}
{"root_query": "car wash", "root_location": "Delaware", "root_seed_name": "New Castle Auto Spa, Inc.", "root_seed_lat": 39.6599834, "root_seed_lng": -75.6086781, "spawn_depth": 1, "parent_seed_name": "New Castle Auto Spa, Inc.", "parent_seed_lat": 39.6599834, "parent_seed_lng": -75.6086781, "radius_km": 1.0, "name": "Hertrich Acura", "rating": "4.5", "reviews": "491", "address": "120 S Dupont Hwy, New Castle, DE 19720, United States", "phone": "+1 302-544-9410", "website": "hertrichacura.com", "email": null, "plus_code": "M97V+4H New Castle, Delaware, USA", "maps_url": "https://www.google.com/maps/place/Hertrich+Acura/data=!4m7!3m6!1s0x89c703f1cbd217f7:0x12ac445e44627739!8m2!3d39.662754!4d-75.6060104!16s%2Fg%2F1tg5d1p5!19sChIJ9xfSy_EDx4kROXdiRF5ErBI?authuser=0&hl=en&rclk=1", "place_lat": 39.662754, "place_lng": -75.6060104, "distance_km_from_parent": 0.38348239946086243, "scraped_at_iso": "2026-04-22T19:29:57Z", "_index": 31}
{"root_query": "car wash", "root_location": "Delaware", "root_seed_name": "Greenhill Car Wash Express", "root_seed_lat": 38.6314161, "root_seed_lng": -75.1762422, "spawn_depth": 1, "parent_seed_name": "Greenhill Car Wash Express", "parent_seed_lat": 38.6314161, "parent_seed_lng": -75.1762422, "radius_km": 1.0, "name": "Wizard of Paws II", "rating": "4.8", "reviews": "5", "address": "32369 Long Neck Rd #16, Millsboro, DE 19966, United States", "phone": "+1 302-947-9299", "website": "wizzardofpawzgrooming.top", "email": null, "plus_code": "JRM9+3P Millsboro, Delaware, USA", "maps_url": "https://www.google.com/maps/place/Wizard+of+Paws+II/data=!4m7!3m6!1s0x89b8c612062ccba7:0x6fac0bffe42c0adf!8m2!3d38.6327438!4d-75.1806869!16s%2Fg%2F1vbl8g_v!19sChIJp8ssBhLGuIkR3wos5P8LrG8?authuser=0&hl=en&rclk=1", "place_lat": 38.6327438, "place_lng": -75.1806869, "distance_km_from_parent": 0.4133410788033716, "scraped_at_iso": "2026-04-22T19:29:57Z", "_index": 32}
{"root_query": "car wash", "root_location": "Delaware", "root_seed_name": "Greenhill Car Wash", "root_seed_lat": 39.7516509, "root_seed_lng": -75.5799736, "spawn_depth": 1, "parent_seed_name": "Greenhill Car Wash", "parent_seed_lat": 39.7516509, "parent_seed_lng": -75.5799736, "radius_km": 1.0, "name": "Truly Elite Auto Detailing", "rating": "5.0", "reviews": "4", "address": "N Union St, Wilmington, DE 19805, United States", "phone": "+1 302-985-3365", "website": "m.facebook.com", "email": null, "plus_code": "PCXG+XX Wilmington, Delaware, USA", "maps_url": "https://www.google.com/maps/place/Truly+Elite+Auto+Detailing/@39.7499483,-75.5725217,17z/data=!3m1!4b1!4m6!3m5!1s0x89c6fd8f18cd52a3:0x7fd457e69f5d23e9!8m2!3d39.7499483!4d-75.5725217!16s%2Fg%2F11p_33zygt?authuser=0&hl=en&entry=ttu&g_ep=EgoyMDI2MDQyMC4wIKXMDSoASAFQAw%3D%3D", "place_lat": 39.7499483, "place_lng": -75.5725217, "distance_km_from_parent": 0.6646009704059586, "scraped_at_iso": "2026-04-22T19:29:58Z", "_index": 33}
{"root_query": "car wash", "root_location": "Delaware", "root_seed_name": "The Car Spa", "root_seed_lat": 39.7096383, "root_seed_lng": -75.6508328, "spawn_depth": 1, "parent_seed_name": "The Car Spa", "parent_seed_lat": 39.7096383, "parent_seed_lng": -75.6508328, "radius_km": 1.0, "name": "30215 Motorsports", "rating": "4.3", "reviews": "3", "address": "715 Stanton Christiana Rd, Newark, DE 19713, United States", "phone": "+1 302-293-6193", "website": null, "email": null, "plus_code": "P83X+P2 Newark, Delaware, USA", "maps_url": "https://www.google.com/maps/place/30215+Motorsports/@39.7042722,-75.6524025,17z/data=!3m1!4b1!4m6!3m5!1s0x89c7017a0918dc5d:0x111004d5f76fc54!8m2!3d39.7042722!4d-75.6524025!16s%2Fg%2F11h5w4cs0b?authuser=0&hl=en&entry=ttu&g_ep=EgoyMDI2MDQyMC4wIKXMDSoASAFQAw%3D%3D", "place_lat": 39.7042722, "place_lng": -75.6524025, "distance_km_from_parent": 0.6116058428049699, "scraped_at_iso": "2026-04-22T19:29:59Z", "_index": 34}
{"root_query": "car wash", "root_location": "Delaware", "root_seed_name": "Express Jet Car Wash", "root_seed_lat": 39.678231, "root_seed_lng": -75.627452, "spawn_depth": 1, "parent_seed_name": "Express Jet Car Wash", "parent_seed_lat": 39.678231, "parent_seed_lng": -75.627452, "radius_km": 1.0, "name": "Diavaeh Car Rental", "rating": "4.4", "reviews": "2", "address": "101 J and M Dr, New Castle, DE 19720, United States", "phone": "+1 302-276-0370", "website": "diavaehcarrental.com", "email": null, "plus_code": "M9HC+GV New Castle, Delaware, USA", "maps_url": "https://www.google.com/maps/place/Diavaeh+Car+Rental/data=!4m7!3m6!1s0x89c70ba8882fdbd7:0x937d47173572deff!8m2!3d39.6788368!4d-75.6278554!16s%2Fg%2F11rtl7jh4j!19sChIJ19sviKgLx4kR_95yNRdHfZM?authuser=0&hl=en&rclk=1", "place_lat": 39.6788368, "place_lng": -75.6278554, "distance_km_from_parent": 0.07569317974820687, "scraped_at_iso": "2026-04-22T19:30:00Z", "_index": 35}
{"root_query": "car wash", "root_location": "Delaware", "root_seed_name": "Price's Corner Car Wash", "root_seed_lat": 39.7377545, "root_seed_lng": -75.6254918, "spawn_depth": 1, "parent_seed_name": "Price's Corner Car Wash", "parent_seed_lat": 39.7377545, "parent_seed_lng": -75.6254918, "radius_km": 1.0, "name": "Regal Car Wash - Wilmington", "rating": "2.5", "reviews": "5", "address": "137 Greenbank Rd, Wilmington, DE 19808, United States", "phone": "+1 610-696-3310", "website": "regalcarwash.com", "email": null, "plus_code": "P9QF+HM Wilmington, Delaware, USA", "maps_url": "https://www.google.com/maps/place/Regal+Car+Wash+-+Wilmington/@39.7389453,-75.6257869,17z/data=!3m1!4b1!4m6!3m5!1s0x89c6ff1fd0d76c8b:0x7b425c21aba22a35!8m2!3d39.7389453!4d-75.6257869!16s%2Fg%2F11vdzz2fs9?authuser=0&hl=en&entry=ttu&g_ep=EgoyMDI2MDQyMC4wIKXMDSoASAFQAw%3D%3D", "place_lat": 39.7389453, "place_lng": -75.6257869, "distance_km_from_parent": 0.13479370585944378, "scraped_at_iso": "2026-04-22T19:30:01Z", "_index": 36}
{"root_query": "car wash", "root_location": "Delaware", "root_seed_name": "Greenhill Car Wash", "root_seed_lat": 39.7516509, "root_seed_lng": -75.5799736, "spawn_depth": 1, "parent_seed_name": "Greenhill Car Wash", "parent_seed_lat": 39.7516509, "parent_seed_lng": -75.5799736, "radius_km": 1.0, "name": "Asbeck Custom Car Audio LLC", "rating": "4.8", "reviews": "3", "address": "217 N Lincoln St, Wilmington, DE 19805, United States", "phone": "+1 215-749-2123", "website": "brand.page", "email": null, "plus_code": "PCXG+6W Wilmington, Delaware, USA", "maps_url": "https://www.google.com/maps/place/Asbeck+Custom+Car+Audio+LLC/data=!4m7!3m6!1s0x89c6fd0800ff1c55:0x1211dd41f40d966e!8m2!3d39.748067!4d-75.5727092!16s%2Fg%2F11v9kdhq_p!19sChIJVRz_AAj9xokRbpYN9EHdERI?authuser=0&hl=en&rclk=1", "place_lat": 39.748067, "place_lng": -75.5727092, "distance_km_from_parent": 0.7379075147500908, "scraped_at_iso": "2026-04-22T19:30:03Z", "_index": 37}
{"root_query": "car wash", "root_location": "Delaware", "root_seed_name": "New Castle Auto Spa, Inc.", "root_seed_lat": 39.6599834, "root_seed_lng": -75.6086781, "spawn_depth": 1, "parent_seed_name": "New Castle Auto Spa, Inc.", "parent_seed_lat": 39.6599834, "parent_seed_lng": -75.6086781, "radius_km": 1.0, "name": "Sheridan Nissan", "rating": "4.6", "reviews": "27", "address": "114 S Dupont Hwy, New Castle, DE 19720, United States", "phone": "+1 302-326-6100", "website": "sheridannissan.com", "email": null, "plus_code": "M97V+CX New Castle, Delaware, USA", "maps_url": "https://www.google.com/maps/place/Sheridan+Nissan/data=!4m7!3m6!1s0x89c703ee1722edcf:0x361397d4e5f1d781!8m2!3d39.6635223!4d-75.605003!16s%2Fg%2F1tfsnz40!19sChIJz-0iF-4Dx4kRgdfx5dSXEzY?authuser=0&hl=en&rclk=1", "place_lat": 39.6635223, "place_lng": -75.605003, "distance_km_from_parent": 0.5038015098210723, "scraped_at_iso": "2026-04-22T19:30:04Z", "_index": 38}
{"root_query": "car wash", "root_location": "Delaware", "root_seed_name": "Price's Corner Car Wash", "root_seed_lat": 39.7377545, "root_seed_lng": -75.6254918, "spawn_depth": 1, "parent_seed_name": "Price's Corner Car Wash", "parent_seed_lat": 39.7377545, "parent_seed_lng": -75.6254918, "radius_km": 1.0, "name": "Greenbank Carwash", "rating": "2.0", "reviews": "6", "address": "135 Greenbank Rd, Wilmington, DE 19808, United States", "phone": "+1 302-994-7266", "website": null, "email": null, "plus_code": "P9QF+JP Wilmington, Delaware, USA", "maps_url": "https://www.google.com/maps/place/Greenbank+Carwash/@39.7390327,-75.6256637,17z/data=!3m1!4b1!4m6!3m5!1s0x89c6fe019d2658e1:0x13548e67491a32ad!8m2!3d39.7390327!4d-75.6256637!16s%2Fg%2F11c6vw248l?authuser=0&hl=en&entry=ttu&g_ep=EgoyMDI2MDQyMC4wIKXMDSoASAFQAw%3D%3D", "place_lat": 39.7390327, "place_lng": -75.6256637, "distance_km_from_parent": 0.14288735956369356, "scraped_at_iso": "2026-04-22T19:30:08Z", "_index": 39}
{"root_query": "car wash", "root_location": "Delaware", "root_seed_name": "Express Jet Car Wash", "root_seed_lat": 39.678231, "root_seed_lng": -75.627452, "spawn_depth": 1, "parent_seed_name": "Express Jet Car Wash", "parent_seed_lat": 39.678231, "parent_seed_lng": -75.627452, "radius_km": 1.0, "name": "DNN AUTO DETAILING", "rating": "5.0", "reviews": "2", "address": "101 J and M Dr, New Castle, DE 19720, United States", "phone": "+1 302-543-0227", "website": "godaddysites.com", "email": null, "plus_code": "M9HC+HR New Castle, Delaware, USA", "maps_url": "https://www.google.com/maps/place/DNN+AUTO+DETAILING/@39.6788944,-75.6278825,17z/data=!3m1!4b1!4m6!3m5!1s0x89c7017d660ddbd9:0x643eec2f20fdfe03!8m2!3d39.6788944!4d-75.6278825!16s%2Fg%2F11w3vh33yj?authuser=0&hl=en&entry=ttu&g_ep=EgoyMDI2MDQyMC4wIKXMDSoASAFQAw%3D%3D", "place_lat": 39.6788944, "place_lng": -75.6278825, "distance_km_from_parent": 0.08245527160884457, "scraped_at_iso": "2026-04-22T19:30:09Z", "_index": 40}
{"root_query": "car wash", "root_location": "Delaware", "root_seed_name": "Greenhill Car Wash Express", "root_seed_lat": 38.6314161, "root_seed_lng": -75.1762422, "spawn_depth": 1, "parent_seed_name": "Greenhill Car Wash Express", "parent_seed_lat": 38.6314161, "parent_seed_lng": -75.1762422, "radius_km": 1.0, "name": "Harry's Hardware", "rating": "4.8", "reviews": "37", "address": "32645 Long Neck Rd, Millsboro, DE 19966, United States", "phone": "+1 302-947-1344", "website": "facebook.com", "email": null, "plus_code": "JRJH+2H Millsboro, Delaware, USA", "maps_url": "https://www.google.com/maps/place/Harry's+Hardware/@38.630021,-75.171058,17z/data=!3m1!4b1!4m6!3m5!1s0x89b8c611e46dab11:0x72b85d5325756379!8m2!3d38.630021!4d-75.171058!16s%2Fg%2F1ptwm8_zj?authuser=0&hl=en&entry=ttu&g_ep=EgoyMDI2MDQyMC4wIKXMDSoASAFQAw%3D%3D", "place_lat": 38.630021, "place_lng": -75.171058, "distance_km_from_parent": 0.4762905484182183, "scraped_at_iso": "2026-04-22T19:30:11Z", "_index": 41}
{"root_query": "car wash", "root_location": "Delaware", "root_seed_name": "WestSide Car Wash", "root_seed_lat": 39.1589691, "root_seed_lng": -75.5359036, "spawn_depth": 1, "parent_seed_name": "WestSide Car Wash", "parent_seed_lat": 39.1589691, "parent_seed_lng": -75.5359036, "radius_km": 1.0, "name": "Emerald City Wash World", "rating": "4.2", "reviews": "3", "address": "730 W Division St, Dover, DE 19904, United States", "phone": "+1 302-734-1230", "website": "emeraldcitywashworld.com", "email": null, "plus_code": "5F57+HC Dover, Delaware, USA", "maps_url": "https://www.google.com/maps/place/Emerald+City+Wash+World/data=!4m7!3m6!1s0x89c77b5656355e23:0x63501a04d3b70645!8m2!3d39.1589683!4d-75.5364383!16s%2Fg%2F1tlbvp5b!19sChIJI141VlZ7x4kRRQa30wQaUGM?authuser=0&hl=en&rclk=1", "place_lat": 39.1589683, "place_lng": -75.5364383, "distance_km_from_parent": 0.0461020278708136, "scraped_at_iso": "2026-04-22T19:30:11Z", "_index": 42}
{"root_query": "car wash", "root_location": "Delaware", "root_seed_name": "Greenhill Car Wash", "root_seed_lat": 39.7516509, "root_seed_lng": -75.5799736, "spawn_depth": 1, "parent_seed_name": "Greenhill Car Wash", "parent_seed_lat": 39.7516509, "parent_seed_lng": -75.5799736, "radius_km": 1.0, "name": "cjs auto llc", "rating": "4.3", "reviews": "2", "address": "1905 Chestnut St, Wilmington, DE 19805, United States", "phone": "+1 302-442-8633", "website": null, "email": null, "plus_code": "PCWG+76 Wilmington, Delaware, USA", "maps_url": "https://www.google.com/maps/place/cjs+auto+llc/@39.7456669,-75.5743923,17z/data=!3m1!4b1!4m6!3m5!1s0x89c6fd6cdf4f6995:0xf254680af00efeb2!8m2!3d39.7456669!4d-75.5743923!16s%2Fg%2F11qrymwy9q?authuser=0&hl=en&entry=ttu&g_ep=EgoyMDI2MDQyMC4wIKXMDSoASAFQAw%3D%3D", "place_lat": 39.7456669, "place_lng": -75.5743923, "distance_km_from_parent": 0.8187966527350661, "scraped_at_iso": "2026-04-22T19:30:11Z", "_index": 43}
{"root_query": "car wash", "root_location": "Delaware", "root_seed_name": "New Castle Auto Spa, Inc.", "root_seed_lat": 39.6599834, "root_seed_lng": -75.6086781, "spawn_depth": 1, "parent_seed_name": "New Castle Auto Spa, Inc.", "parent_seed_lat": 39.6599834, "parent_seed_lng": -75.6086781, "radius_km": 1.0, "name": "Sheridan Nissan, L.L.C. Service", "rating": "4.5", "reviews": "57", "address": "114 S Dupont Hwy, New Castle, DE 19720, United States", "phone": "+1 302-326-6100", "website": "sheridannissan.com", "email": null, "plus_code": "M97V+GW New Castle, Delaware, USA", "maps_url": "https://www.google.com/maps/place/Sheridan+Nissan,+L.L.C.+Service/data=!4m7!3m6!1s0x89c703ee23636e75:0x7026814e85d25d16!8m2!3d39.6637659!4d-75.6052324!16s%2Fg%2F11fy4n9zbk!19sChIJdW5jI-4Dx4kRFl3ShU6BJnA?authuser=0&hl=en&rclk=1", "place_lat": 39.6637659, "place_lng": -75.6052324, "distance_km_from_parent": 0.5137098302468487, "scraped_at_iso": "2026-04-22T19:30:12Z", "_index": 44}
{"root_query": "car wash", "root_location": "Delaware", "root_seed_name": "Price's Corner Car Wash", "root_seed_lat": 39.7377545, "root_seed_lng": -75.6254918, "spawn_depth": 1, "parent_seed_name": "Price's Corner Car Wash", "parent_seed_lat": 39.7377545, "parent_seed_lng": -75.6254918, "radius_km": 1.0, "name": "Detail Enthusiast LLC", "rating": "5.0", "reviews": "2", "address": "Kirkwood Hwy, Wilmington, DE 19808, United States", "phone": "+1 302-510-0014", "website": "detailenthusiastllc.com", "email": null, "plus_code": "P9PG+QJ Wilmington, Delaware, USA", "maps_url": "https://www.google.com/maps/place/Detail+Enthusiast+LLC/data=!4m7!3m6!1s0x2f435c9795edf5e5:0x844d119e3ec27f21!8m2!3d39.736983!4d-75.6233998!16s%2Fg%2F11l242563v!19sChIJ5fXtlZdcQy8RIX_CPp4RTYQ?authuser=0&hl=en&rclk=1", "place_lat": 39.736983, "place_lng": -75.6233998, "distance_km_from_parent": 0.1983876575063708, "scraped_at_iso": "2026-04-22T19:30:14Z", "_index": 45}
{"root_query": "car wash", "root_location": "Delaware", "root_seed_name": "Mr Wash Car Wash", "root_seed_lat": 38.713421, "root_seed_lng": -75.1024047, "spawn_depth": 1, "parent_seed_name": "Mr Wash Car Wash", "parent_seed_lat": 38.713421, "parent_seed_lng": -75.1024047, "radius_km": 1.0, "name": "Rehoboth Hardware Store", "rating": "4.2", "reviews": "3", "address": "19897 Hebron Rd # I, Rehoboth Beach, DE 19971, United States", "phone": "+1 302-542-8686", "website": "rehobothhardware.com", "email": null, "plus_code": "PV7X+8G Rehoboth Beach, Delaware, USA", "maps_url": "https://www.google.com/maps/place/Rehoboth+Hardware+Store/data=!4m7!3m6!1s0x89b8b6418c8828c5:0xa26da7bf9e73f4ab!8m2!3d38.7133126!4d-75.1012374!16s%2Fg%2F1hc5gmm1y!19sChIJxSiIjEG2uIkRq_Rznr-nbaI?authuser=0&hl=en&rclk=1", "place_lat": 38.7133126, "place_lng": -75.1012374, "distance_km_from_parent": 0.10199398405424595, "scraped_at_iso": "2026-04-22T19:30:14Z", "_index": 46}
{"root_query": "car wash", "root_location": "Delaware", "root_seed_name": "Express Jet Car Wash", "root_seed_lat": 39.678231, "root_seed_lng": -75.627452, "spawn_depth": 1, "parent_seed_name": "Express Jet Car Wash", "parent_seed_lat": 39.678231, "parent_seed_lng": -75.627452, "radius_km": 1.0, "name": "Main One Auto LLC", "rating": "4.4", "reviews": "2", "address": "101 J and M Dr, New Castle, DE 19720, United States", "phone": "+1 302-276-0344", "website": "mainoneautollc.com", "email": null, "plus_code": "M9HC+HR New Castle, Delaware, USA", "maps_url": "https://www.google.com/maps/place/Main+One+Auto+LLC/data=!4m7!3m6!1s0x8744b41a3e5454f:0x98d8f1c69bd31c61!8m2!3d39.6788944!4d-75.6278825!16s%2Fg%2F11y3jm6qdz!19sChIJT0Xlo0FLdAgRYRzTm8bx2Jg?authuser=0&hl=en&rclk=1", "place_lat": 39.6788944, "place_lng": -75.6278825, "distance_km_from_parent": 0.08245527160884457, "scraped_at_iso": "2026-04-22T19:30:15Z", "_index": 47}
{"root_query": "car wash", "root_location": "Delaware", "root_seed_name": "Greenhill Car Wash Express", "root_seed_lat": 38.6314161, "root_seed_lng": -75.1762422, "spawn_depth": 1, "parent_seed_name": "Greenhill Car Wash Express", "parent_seed_lat": 38.6314161, "parent_seed_lng": -75.1762422, "radius_km": 1.0, "name": "Ocean Suds", "rating": "4.6", "reviews": "8", "address": "32362 Long Neck Rd, Millsboro, DE 19966, United States", "phone": "+1 302-945-2838", "website": "oceansuds.com", "email": null, "plus_code": "JRJ9+83 Millsboro, Delaware, USA", "maps_url": "https://www.google.com/maps/place/Ocean+Suds/data=!4m7!3m6!1s0x89b8c7105ecd5bc3:0x71bb811000d75009!8m2!3d38.6308671!4d-75.1822536!16s%2Fg%2F11tx1yfprg!19sChIJw1vNXhDHuIkRCVDXABCBu3E?authuser=0&hl=en&rclk=1", "place_lat": 38.6308671, "place_lng": -75.1822536, "distance_km_from_parent": 0.5257268816257021, "scraped_at_iso": "2026-04-22T19:30:15Z", "_index": 48}
{"root_query": "car wash", "root_location": "Delaware", "root_seed_name": "WestSide Car Wash", "root_seed_lat": 39.1589691, "root_seed_lng": -75.5359036, "spawn_depth": 1, "parent_seed_name": "WestSide Car Wash", "parent_seed_lat": 39.1589691, "parent_seed_lng": -75.5359036, "radius_km": 1.0, "name": "NAPA Auto Parts - Madden Auto Supply Dover", "rating": "4.6", "reviews": "3", "address": "29 S West St, Dover, DE 19904, United States", "phone": "+1 302-674-0211", "website": "napaonline.com", "email": null, "plus_code": "5F58+QX Dover, Delaware, USA", "maps_url": "https://www.google.com/maps/place/NAPA+Auto+Parts+-+Madden+Auto+Supply+Dover/data=!4m7!3m6!1s0x89c77b55487b8f33:0xe3002a1adf4a69bc!8m2!3d39.159478!4d-75.532537!16s%2Fg%2F1tdr94kd!19sChIJM497SFV7x4kRvGlK3xoqAOM?authuser=0&hl=en&rclk=1", "place_lat": 39.159478, "place_lng": -75.532537, "distance_km_from_parent": 0.29573221385275295, "scraped_at_iso": "2026-04-22T19:30:18Z", "_index": 49}
{"root_query": "car wash", "root_location": "Delaware", "root_seed_name": "New Castle Auto Spa, Inc.", "root_seed_lat": 39.6599834, "root_seed_lng": -75.6086781, "spawn_depth": 1, "parent_seed_name": "New Castle Auto Spa, Inc.", "parent_seed_lat": 39.6599834, "parent_seed_lng": -75.6086781, "radius_km": 1.0, "name": "Carman Lincoln", "rating": "4.8", "reviews": "6", "address": "189 S Dupont Hwy, New Castle, DE 19720, United States", "phone": "+1 302-324-4400", "website": "carmanlincoln.com", "email": null, "plus_code": "M94P+W3 New Castle, Delaware, USA", "maps_url": "https://www.google.com/maps/place/Carman+Lincoln/data=!4m7!3m6!1s0x89c7036de2b0280f:0xb90b4be4d3b83748!8m2!3d39.6573391!4d-75.6148614!16s%2Fg%2F11jp5ct_4m!19sChIJDyiw4m0Dx4kRSDe40-RLC7k?authuser=0&hl=en&rclk=1", "place_lat": 39.6573391, "place_lng": -75.6148614, "distance_km_from_parent": 0.6055026483493336, "scraped_at_iso": "2026-04-22T19:30:19Z", "_index": 50}
{"root_query": "car wash", "root_location": "Delaware", "root_seed_name": "Greenhill Car Wash", "root_seed_lat": 39.7516509, "root_seed_lng": -75.5799736, "spawn_depth": 1, "parent_seed_name": "Greenhill Car Wash", "parent_seed_lat": 39.7516509, "parent_seed_lng": -75.5799736, "radius_km": 1.0, "name": "Union Park BMW Service", "rating": "4.2", "reviews": "9", "address": "901 N Union St, Wilmington, DE 19805, United States", "phone": "+1 302-482-4346", "website": "unionparkbmw.com", "email": null, "plus_code": "QC3H+JQ Wilmington, Delaware, USA", "maps_url": "https://www.google.com/maps/place/Union+Park+BMW+Service/data=!4m7!3m6!1s0x89c6fdc7c990c749:0x1ae7241f8ccfb69!8m2!3d39.7540295!4d-75.5705127!16s%2Fg%2F11fq3m1bqn!19sChIJSceQycf9xokRafvM-EFyrgE?authuser=0&hl=en&rclk=1", "place_lat": 39.7540295, "place_lng": -75.5705127, "distance_km_from_parent": 0.8509392228661774, "scraped_at_iso": "2026-04-22T19:30:19Z", "_index": 51}
{"root_query": "car wash", "root_location": "Delaware", "root_seed_name": "Price's Corner Car Wash", "root_seed_lat": 39.7377545, "root_seed_lng": -75.6254918, "spawn_depth": 1, "parent_seed_name": "Price's Corner Car Wash", "parent_seed_lat": 39.7377545, "parent_seed_lng": -75.6254918, "radius_km": 1.0, "name": "Exxon", "rating": "4.1", "reviews": "2", "address": "2007 Newport Gap Pike, Wilmington, DE 19808, United States", "phone": "+1 302-892-9740", "website": "locations.dashin.com", "email": null, "plus_code": "P9PC+92 Wilmington, Delaware, USA", "maps_url": "https://www.google.com/maps/place/Exxon/data=!4m7!3m6!1s0x89c701fd7389e561:0x9f2130dae141897c!8m2!3d39.7359305!4d-75.6299019!16s%2Fg%2F1tfqmbc7!19sChIJYeWJc_0Bx4kRfIlB4dowIZ8?authuser=0&hl=en&rclk=1", "place_lat": 39.7359305, "place_lng": -75.6299019, "distance_km_from_parent": 0.4281799725090408, "scraped_at_iso": "2026-04-22T19:30:20Z", "_index": 52}
{"root_query": "car wash", "root_location": "Delaware", "root_seed_name": "Mr Wash Car Wash", "root_seed_lat": 38.713421, "root_seed_lng": -75.1024047, "spawn_depth": 1, "parent_seed_name": "Mr Wash Car Wash", "parent_seed_lat": 38.713421, "parent_seed_lng": -75.1024047, "radius_km": 1.0, "name": "Exxon", "rating": "3.7", "reviews": "7", "address": "19884 Coastal Hwy, Rehoboth Beach, DE 19971, United States", "phone": "+1 302-226-9600", "website": "exxon.com", "email": null, "plus_code": "PV7R+VQ Rehoboth Beach, Delaware, USA", "maps_url": "https://www.google.com/maps/place/Exxon/data=!4m7!3m6!1s0x89b8b64a86cef37d:0x2722be2272262145!8m2!3d38.7146889!4d-75.108001!16s%2Fg%2F1tfjrltj!19sChIJffPOhkq2uIkRRSEmciK-Iic?authuser=0&hl=en&rclk=1", "place_lat": 38.7146889, "place_lng": -75.108001, "distance_km_from_parent": 0.5056047723249977, "scraped_at_iso": "2026-04-22T19:30:21Z", "_index": 53}
{"root_query": "car wash", "root_location": "Delaware", "root_seed_name": "Cleanpro Detail Center", "root_seed_lat": 39.6094665, "root_seed_lng": -75.7060623, "spawn_depth": 1, "parent_seed_name": "Cleanpro Detail Center", "parent_seed_lat": 39.6094665, "parent_seed_lng": -75.7060623, "radius_km": 1.0, "name": "Advance Auto Parts", "rating": "4.3", "reviews": "273", "address": "1880 Pulaski Hwy, Bear, DE 19701, United States", "phone": "+1 302-918-4015", "website": "stores.advanceautoparts.com", "email": null, "plus_code": "J76V+2J Bear, Delaware, USA", "maps_url": "https://www.google.com/maps/place/Advance+Auto+Parts/data=!4m7!3m6!1s0x89c7078e9d31ca15:0xecfb454fa9932a4d!8m2!3d39.6100698!4d-75.7059356!16s%2Fg%2F11g9q1lrwj!19sChIJFcoxnY4Hx4kRTSqTqU9F--w?authuser=0&hl=en&rclk=1", "place_lat": 39.6100698, "place_lng": -75.7059356, "distance_km_from_parent": 0.06795626359701673, "scraped_at_iso": "2026-04-22T19:30:24Z", "_index": 54}
{"root_query": "car wash", "root_location": "Delaware", "root_seed_name": "WestSide Car Wash", "root_seed_lat": 39.1589691, "root_seed_lng": -75.5359036, "spawn_depth": 1, "parent_seed_name": "WestSide Car Wash", "parent_seed_lat": 39.1589691, "parent_seed_lng": -75.5359036, "radius_km": 1.0, "name": "S & S Auto Detailing", "rating": "4.7", "reviews": "2", "address": "26 Carver Rd, Dover, DE 19904, United States", "phone": "+1 302-883-4124", "website": "ssautodetailing26.com", "email": null, "plus_code": "5F55+W7 Dover, Delaware, USA", "maps_url": "https://www.google.com/maps/place/S+%26+S+Auto+Detailing/data=!4m7!3m6!1s0x89c77b58519211e1:0x9a28a407e2aeb9d1!8m2!3d39.1597967!4d-75.5418076!16s%2Fg%2F1q62bl0fv!19sChIJ4RGSUVh7x4kR0bmu4gekKJo?authuser=0&hl=en&rclk=1", "place_lat": 39.1597967, "place_lng": -75.5418076, "distance_km_from_parent": 0.5172923769016868, "scraped_at_iso": "2026-04-22T19:30:24Z", "_index": 55}
